{
  "ConnectionStrings": {
    "CMSConnection": "server=70.35.197.201;database=motovalle_cms;user=pos_user;password=inventek;Connect Timeout=60",
    "UsersConnection": "server=70.35.197.201;database=motovalle_cms;user=pos_user;password=inventek;Connect Timeout=60",
    "DefaultConnection": "server=70.35.197.201;database=motovalle_cms;user=pos_user;password=inventek;Connect Timeout=60",
    "InventekConnection": "server=70.35.197.201;database=motovalle_cms;user=pos_user;password=inventek;Connect Timeout=60"
  },
  "Logging": {
    "LogLevel": {
      "Default": "Information",
      "Microsoft": "Warning",
      "Microsoft.Hosting.Lifetime": "Information"
    }
  },
  "AllowedHosts": "*",
  "AppSettings": {
    "RecordsPerPageDefault": "5"
  },
  "EmailSettings": {
    "Host": "mi3-ss16.a2hosting.com",
    "Port": "2525",
    "EnableSSL": "true",
    "EmailFrom": "info@tiendamotovalle.com",
    "Password": "BqYwS8gQy9pi",
    "DefaultSubject": "No responder",
    "EmailToBcc": "octavio@innovamarketingsystems.com",
    "EmailTemplate": "\\assets\\htmlTemplates\\emailTemplate.html",
    "EmailTemplateIdentity": "\\assets\\htmlTemplates\\emailTemplateIdentity.html",
    "EmailTemplateOperatorsClubMassey": "\\assets\\htmlTemplates\\emailTemplateOperatorsClubMassey.html",
    "EmailTemplateTestDriveFord": "\\assets\\htmlTemplates\\emailTemplateTestDriveFord.html",
    "EmailTemplateGeneric": "\\assets\\htmlTemplates\\emailTemplateGeneric.html",
    "EmailToDefault": "cariza@motovalle.com",
    "EmailToCcDefault": "cariza@motovalle.com"
  },
  "ServicesSettings": {
    "APIBaseURL": "https://www.tiendamotovalle.com/",
    "Timeout": "10000"
  },
  "SantanderBankSettings": {
    "UrlBase": "https://apitst.santanderconsumer.co:11445/PremierServices_API_EXT_TST/",
    "Timeout": "60000",
    "Username": "Digital",
    "Password": "Digital2020",
    "UserPass": "RABpAGcAaQB0AGEAbAA6AEQAaQBnAGkAdABhAGwAMgAwADIAMAA=",
    "ConcesionarioRadicacion": "26",
    "IdentificacionVendedor": "147",
    "UsuarioRadica": "c.sacanamboyc"
  },
  "IdentitySettings": {
    "RequireDigit": "true",
    "RequiredLength": "6",
    "RequireNonAlphanumeric": "true",
    "RequireUppercase": "true",
    "RequireLowercase": "true",
    "DefaultLockoutTimeSpan": "30",
    "MaxFailedAccessAttempts": "3",
    "RequireUniqueEmail": "true",
    "ExpireTimeSpan": "180",
    "RequireConfirmedEmail": "true"
  },
  "MercadoPagoSettings": {
    "ClientID": "1705880713428697",
    "ClientSecret": "IdEvVlX52HOYIaJgiOAgQl5dRnZXG5qm",
    "PublicKey": "APP_USR-519df4c1-8272-4ee5-aa86-2174423f36a4",
    "AccessToken": "APP_USR-1705880713428697-082822-670e3613e7c77b40483a7f1c8649517a-465259071"
  },
  "WompiSettings": {
    "PublicKey": "pub_prod_EN6fMwBI8GVw2CjAFATamtl4CvjwwP2W",
    "PrivateKey": "prv_prod_CvJ9yLGYOwiSxjklUPDKgsYKiYb6YchP",
    "TechnicalKey": "prod_events_wakugQbCVoNlUCum8qeydE26JeAxtSAm",
    "Endpoint": "https://production.wompi.co/v1/"
  },
  "CostSettings": {
    "Shipping": "0.0"
  },
  "JwtSettings": {
    "Key": "ql4ueFWPTEyorsYY8ObxYA==",
    "Issuer": "MotovalleEcommerceAuthenticationServer",
    "Audience": "MotovalleEcommerceClient",
    "Subject": "MotovalleEcommerceAccessToken"
  },
  "RecaptchaSettings": {
    "SecretKey": "6Lfkv7EZAAAAAF5b9kWYEVS26FH-4ld8AzGdR6fM",
    "SiteKey": "6Lfkv7EZAAAAALGkeCrXvm_Z_Pi25ZgluTH4j0fG",
    "Version": "v2",
    "Enabled": "true"
  },
  "ManualInvoiceSettings": {
    "ManualInvoiceTemplate": "\\assets\\htmlTemplates\\manual_invoice.html",
    "ManualInvoiceEmailTo": "agentecontact05@motovalle.com",
    "ManualInvoiceEmailToCc": "administradorweb@motovalle.com"
  },
  "WestBankFundingRequest": {
    "ManualInvoiceTemplate": "\\assets\\htmlTemplates\\funding_request_west_bank.html",
    "ManualInvoiceEmailTo": "agentecontact05@motovalle.com",
    "ManualInvoiceEmailToCc": "administradorweb@motovalle.com"
  },
  "CampaingSettings": {
    "Phone": "573113769946",
    "Email": "agentecontac05@motovalle.com",
    "CarshowEmailTo": "jtamayo@motovalle.com",
    "CarshowEmailToBcc": "jgiraldo@motovalle.com",
    "FordCampaingEmailTo": "agentecontac05@motovalle.com",
    "FordCampaingEmailToBcc": "jgiraldo@motovalle.com",
    "MazdaCDSCampaing": "agentecontac04@motovalle.com",
    "MazdaCDSCampaingToCc": "directorcontactcenter@motovalle.com",
    "MazdaCDSCampaingToBcc": "coormercadeobog@motovalle.com",
    "MazdaCDSCampaingPhone": "https://api.whatsapp.com/send?phone=573113769946\u0026text=Quiero%20cotizar%20con%20Motovalle\u0026source=\u0026data=\u0026app_absent=",
    "MazdaCDSCampaingLink": "https://capnet2.ddns.net:3000/Mazda_Motovalle/csl/cita-servicio/nueva",
    "EmailToCc": "administradorweb@motovalle.com"
  },
  "NewslettersSubscription": {
    "EmailTo": "agentecontact05@motovalle.com",
    "EmailToCc": "directorcontactcenter@motovalle.com"
  },
  "InterestedCustomers": {
    "EmailTo": "agentecontact05@motovalle.com",
    "EmailToCc": "directorcontactcenter@motovalle.com"
  },
  "SlideGoTo": {
    "PostId": "12"
  },
  "Headquarters": [
    {
      "Make": "Mazda",
      "Name": "Bogota - Vitrina",
      "Address": "Avenida 19 #127 - 05 La Calleja",
      "Schedule": [
        {
          "Days": "Lun-Vie",
          "Hours": "10:00am - 7:00pm"
        },
        {
          "Days": "Sab",
          "Hours": "10:00am - 6:00pm"
        },
        {
          "Days": "Dom",
          "Hours": "10:00am - 5:00pm"
        }
      ]
    },
    {
      "Make": "Mazda",
      "Name": "Bogota - Centro de Servicios",
      "Address": "Calle 171 #22A - 30-50",
      "Schedule": [
        {
          "Days": "Lun-Vie",
          "Hours": "10:00am - 7:00pm"
        },
        {
          "Days": "Sab",
          "Hours": "10:00am - 2:00pm"
        }
      ]
    },
    {
      "Make": "Ford",
      "Name": "Bogota - Vitrina",
      "Address": "Calle 13 # 49 - 91 Puente Aranda",
      "Schedule": [
        {
          "Days": "Lun-Vie",
          "Hours": "10:00am - 7:00pm"
        },
        {
          "Days": "Sab",
          "Hours": "10:00am - 6:00pm"
        },
        {
          "Days": "Dom",
          "Hours": "11:00am - 3:00pm"
        }
      ]
    },
    {
      "Make": "Ford",
      "Name": "Cali - Sede Norte",
      "Address": "Calle 26 # 1 - 71",
      "Schedule": [
        {
          "Days": "Lun-Vie",
          "Hours": "7:30am - 6:00pm"
        },
        {
          "Days": "Sab",
          "Hours": "9:00am - 4:00pm"
        }
      ]
    },
    {
      "Make": "Ford",
      "Name": "Cali - Sede Sur",
      "Address": "Calle 9 # 44 -59",
      "Schedule": [
        {
          "Days": "Lun-Vie",
          "Hours": "7:30am - 6:00pm"
        },
        {
          "Days": "Sab",
          "Hours": "9:00am - 4:00pm"
        },
        {
          "Days": "Dom",
          "Hours": "9:00am - 1:00pm"
        }
      ]
    },
    {
      "Make": "Massey Ferguson",
      "Name": "Cali",
      "Address": "Calle 26 # 1 - 71 Sede Norte",
      "Schedule": [
        {
          "Days": "Lun-Vie",
          "Hours": "8:00am - 5:30pm"
        },
        {
          "Days": "Sab",
          "Hours": "9:00am - 12:0pm"
        }
      ]
    },
    {
      "Make": "Massey Ferguson",
      "Name": "Bogota",
      "Address": "Calle 13 # 49 -91",
      "Schedule": [
        {
          "Days": "Lun-Vie",
          "Hours": "8:00am - 5:30pm"
        },
        {
          "Days": "Sab",
          "Hours": "9:00am - 12:00m"
        }
      ]
    },
    {
      "Make": "Massey Ferguson",
      "Name": "Villavicencio",
      "Address": "Cll 1 N. 37-70 Anillo Vial",
      "Schedule": [
        {
          "Days": "Lun-Vie",
          "Hours": "8:00am a 12:00m y 1:30pm a 6:00pm"
        },
        {
          "Days": "Sab",
          "Hours": "8:00am - 12:00m"
        }
      ]
    },
    {
      "Make": "Massey Ferguson",
      "Name": "Itagui (Antioquia)",
      "Address": "Autopista Sur Carrera 42 # 29 - 43",
      "Schedule": [
        {
          "Days": "Lun-Vie",
          "Hours": "8:00am - 5:30pm"
        },
        {
          "Days": "Sab",
          "Hours": "9:00am - 12:00m"
        }
      ]
    },
    {
      "Make": "Massey Ferguson",
      "Name": "Bucaramanga",
      "Address": "Carrera 15 # 21 - 35",
      "Schedule": [
        {
          "Days": "Lun-Vie",
          "Hours": "8:00am - 5:30pm"
        },
        {
          "Days": "Sab",
          "Hours": "9:00am - 12:00m"
        }
      ]
    },
    {
      "Make": "Massey Ferguson",
      "Name": "Yopal",
      "Address": "Cr 17 N. 29 - 66",
      "Schedule": [
        {
          "Days": "Lun-Vie",
          "Hours": "8:00am a 12:00m y 2:00pm a 6:00pm"
        },
        {
          "Days": "Sab",
          "Hours": "9:00am - 12:30m"
        }
      ]
    },
    {
      "Make": "Carshow",
      "Name": "Cali - Sede Norte",
      "Address": "Calle 26 # 1 - 71",
      "Schedule": [
        {
          "Days": "Lun-Vie",
          "Hours": "7:30am - 6:00pm"
        },
        {
          "Days": "Sab",
          "Hours": "9:00am - 4:00pm"
        }
      ]
    },
    {
      "Make": "Carshow",
      "Name": "Bogota - Vitrina",
      "Address": "Calle 13 # 49 - 91 Puente Aranda",
      "Schedule": [
        {
          "Days": "Lun-Vie",
          "Hours": "8:00am - 5:30pm"
        },
        {
          "Days": "Sab",
          "Hours": "8:00am - 4:00pm"
        },
        {
          "Days": "Dom",
          "Hours": "11:00am - 3:00pm"
        }
      ]
    },
    {
      "Make": "Carshow",
      "Name": "Bogota - Vitrina",
      "Address": "Avenida 19 #127 - 05 La Calleja",
      "Schedule": [
        {
          "Days": "Lun-Vie",
          "Hours": "8:00am - 7:00pm"
        },
        {
          "Days": "Sab",
          "Hours": "9:00am - 6:00pm"
        },
        {
          "Days": "Dom",
          "Hours": "10:00am - 5:00pm"
        }
      ]
    },
    {
      "Make": "Carshow",
      "Name": "Bogota - Centro de Servicios",
      "Address": "Calle 171 #22A - 30-50",
      "Schedule": [
        {
          "Days": "Lun-Vie",
          "Hours": "6:00am - 5:00pm"
        },
        {
          "Days": "Sab",
          "Hours": "7:00am - 12:00pm"
        }
      ]
    }
  ]
}